{"type":"FeatureCollection","features":[{"type":"Feature","geometry":{"type":"LineString","coordinates":[[-3.188396,55.944425],[-3.1884481,55.9441296],[-3.1887435,55.9441817],[-3.1890435,55.9441817],[-3.1890956,55.9444771],[-3.1891477,55.9447725],[-3.1891998,55.945068],[-3.1889044,55.9451201],[-3.1886089,55.9451722],[-3.1888018,55.945402],[-3.1885063,55.9454541],[-3.1888018,55.9455062],[-3.1890837,55.9456088],[-3.1893791,55.9456609],[-3.1893791,55.9459609],[-3.1896746,55.946013],[-3.1899746,55.946013],[-3.1902746,55.946013],[-3.1905746,55.946013],[-3.1908746,55.946013],[-3.19117,55.9459609],[-3.19132,55.9457011],[-3.19147,55.9454413],[-3.19162,55.9451814],[-3.1919154,55.9451294],[-3.1922154,55.9451294],[-3.1919856,55.9449365],[-3.1917558,55.9447437],[-3.191526,55.9445508],[-3.1912662,55.9444008],[-3.1910364,55.944208],[-3.1907766,55.944058],[-3.1905468,55.9438652],[-3.190287,55.9437152],[-3.1901844,55.9434333],[-3.1900344,55.9431735],[-3.1898844,55.9429136],[-3.1901798,55.9428616],[-3.1904752,55.9428095],[-3.1906681,55.9430393],[-3.1909279,55.9428893],[-3.1911877,55.9427393],[-3.1908922,55.9427914],[-3.1905968,55.9428435],[-3.1903014,55.9428956],[-3.1900059,55.9429477],[-3.189724,55.9430503],[-3.1894286,55.9431024],[-3.1891467,55.943205],[-3.1888512,55.9432571],[-3.1885693,55.9433597],[-3.1882739,55.9434118],[-3.187992,55.9435144],[-3.1877621,55.9437072],[-3.1875023,55.9438572],[-3.1872069,55.9439093],[-3.186925,55.9440119],[-3.1866295,55.944064],[-3.1863341,55.9441161],[-3.1860743,55.9439661],[-3.1863041,55.9441589],[-3.186252,55.9444544],[-3.1865118,55.9446044],[-3.1868073,55.9445523],[-3.1866144,55.9447821],[-3.186717,55.945064],[-3.186867,55.9453238],[-3.1870599,55.9455536],[-3.1873197,55.9457036],[-3.1875495,55.9455108],[-3.1878449,55.9454587],[-3.1879949,55.9451989],[-3.1878449,55.9449391],[-3.1876949,55.9446793],[-3.1874351,55.9445293],[-3.187383,55.9442338],[-3.1873309,55.9439384],[-3.1872788,55.9436429],[-3.1872268,55.9433475],[-3.1871241,55.9430656],[-3.1870215,55.9427837],[-3.1867215,55.9427837],[-3.1864215,55.9427837],[-3.1861617,55.9429337],[-3.1859019,55.9430837],[-3.1856421,55.9432337],[-3.1853823,55.9433837],[-3.1851225,55.9435337],[-3.1848927,55.9437265],[-3.1846329,55.9438765],[-3.1846329,55.9441765],[-3.1845808,55.944472],[-3.1845808,55.944772],[-3.1845287,55.9450674],[-3.1845287,55.9453674],[-3.1848241,55.9453153],[-3.1851196,55.9452632],[-3.185415,55.9452111],[-3.1857105,55.945159],[-3.1859924,55.9450564],[-3.1862878,55.9450043],[-3.1865697,55.9449017],[-3.1868652,55.9448496],[-3.1867626,55.9451315],[-3.1869554,55.9453613],[-3.1871852,55.9455542],[-3.1874806,55.9455021],[-3.1877806,55.9455021],[-3.1880761,55.94545],[-3.1881787,55.9451681],[-3.1882813,55.9448862],[-3.1883334,55.9445907]]},"properties":{}},{"type":"Feature","geometry":{"type":"Point","coordinates":[-3.188415,55.944305]},"properties":{"rgb-string":"#40ff00","marker-color":"#40ff00","marker-symbol":"lighthouse","location":"trades.rare.cable"}},{"type":"Feature","geometry":{"type":"Point","coordinates":[-3.189138,55.944197]},"properties":{"rgb-string":"#40ff00","marker-color":"#40ff00","marker-symbol":"lighthouse","location":"spoon.invest.every"}},{"type":"Feature","geometry":{"type":"Point","coordinates":[-3.189186,55.945087]},"properties":{"rgb-string":"#80ff00","marker-color":"#80ff00","marker-symbol":"lighthouse","location":"number.exist.rate"}},{"type":"Feature","geometry":{"type":"Point","coordinates":[-3.188704,55.945168]},"properties":{"rgb-string":"#ffc000","marker-color":"#ffc000","marker-symbol":"danger","location":"rooms.lamp.teach"}},{"type":"Feature","geometry":{"type":"Point","coordinates":[-3.188801,55.945437]},"properties":{"rgb-string":"#ff8000","marker-color":"#ff8000","marker-symbol":"danger","location":"shady.soft.phones"}},{"type":"Feature","geometry":{"type":"Point","coordinates":[-3.188319,55.945518]},"properties":{"rgb-string":"#c0ff00","marker-color":"#c0ff00","marker-symbol":"lighthouse","location":"skills.less.herb"}},{"type":"Feature","geometry":{"type":"Point","coordinates":[-3.18933,55.945653]},"properties":{"rgb-string":"#ff4000","marker-color":"#ff4000","marker-symbol":"danger","location":"museum.spicy.horns"}},{"type":"Feature","geometry":{"type":"Point","coordinates":[-3.189379,55.945949]},"properties":{"rgb-string":"#ff8000","marker-color":"#ff8000","marker-symbol":"danger","location":"coherent.saints.stuck"}},{"type":"Feature","geometry":{"type":"Point","coordinates":[-3.189957,55.94603]},"properties":{"rgb-string":"#ff0000","marker-color":"#ff0000","marker-symbol":"danger","location":"love.behind.orchestra"}},{"type":"Feature","geometry":{"type":"Point","coordinates":[-3.191161,55.945976]},"properties":{"rgb-string":"#ff4000","marker-color":"#ff4000","marker-symbol":"danger","location":"simple.rust.audio"}},{"type":"Feature","geometry":{"type":"Point","coordinates":[-3.191594,55.945195]},"properties":{"rgb-string":"#ff8000","marker-color":"#ff8000","marker-symbol":"danger","location":"hills.feels.tunes"}},{"type":"Feature","geometry":{"type":"Point","coordinates":[-3.192221,55.945114]},"properties":{"rgb-string":"#ff8000","marker-color":"#ff8000","marker-symbol":"danger","location":"useful.hike.trades"}},{"type":"Feature","geometry":{"type":"Point","coordinates":[-3.190294,55.943712]},"properties":{"rgb-string":"#40ff00","marker-color":"#40ff00","marker-symbol":"lighthouse","location":"sculpture.shot.melon"}},{"type":"Feature","geometry":{"type":"Point","coordinates":[-3.190197,55.943443]},"properties":{"rgb-string":"#40ff00","marker-color":"#40ff00","marker-symbol":"lighthouse","location":"arts.dish.scarcely"}},{"type":"Feature","geometry":{"type":"Point","coordinates":[-3.189908,55.942904]},"properties":{"rgb-string":"#00ff00","marker-color":"#00ff00","marker-symbol":"lighthouse","location":"second.launch.miles"}},{"type":"Feature","geometry":{"type":"Point","coordinates":[-3.190583,55.942823]},"properties":{"rgb-string":"#000000","marker-color":"#000000","marker-symbol":"cross","location":"tonic.bliss.cove"}},{"type":"Feature","geometry":{"type":"Point","coordinates":[-3.190727,55.943092]},"properties":{"rgb-string":"#40ff00","marker-color":"#40ff00","marker-symbol":"lighthouse","location":"relate.chill.vest"}},{"type":"Feature","geometry":{"type":"Point","coordinates":[-3.191161,55.942742]},"properties":{"rgb-string":"#00ff00","marker-color":"#00ff00","marker-symbol":"lighthouse","location":"along.spill.limp"}},{"type":"Feature","geometry":{"type":"Point","coordinates":[-3.187982,55.943497]},"properties":{"rgb-string":"#40ff00","marker-color":"#40ff00","marker-symbol":"lighthouse","location":"scare.cubs.resort"}},{"type":"Feature","geometry":{"type":"Point","coordinates":[-3.1875,55.943874]},"properties":{"rgb-string":"#c0ff00","marker-color":"#c0ff00","marker-symbol":"lighthouse","location":"begins.spider.drips"}},{"type":"Feature","geometry":{"type":"Point","coordinates":[-3.187018,55.943982]},"properties":{"rgb-string":"#80ff00","marker-color":"#80ff00","marker-symbol":"lighthouse","location":"renew.ears.tend"}},{"type":"Feature","geometry":{"type":"Point","coordinates":[-3.186537,55.944063]},"properties":{"rgb-string":"#ff4000","marker-color":"#ff4000","marker-symbol":"danger","location":"lime.learns.front"}},{"type":"Feature","geometry":{"type":"Point","coordinates":[-3.186007,55.943901]},"properties":{"rgb-string":"#ff8000","marker-color":"#ff8000","marker-symbol":"danger","location":"teams.mild.played"}},{"type":"Feature","geometry":{"type":"Point","coordinates":[-3.186777,55.944575]},"properties":{"rgb-string":"#ff8000","marker-color":"#ff8000","marker-symbol":"danger","location":"artist.gets.react"}},{"type":"Feature","geometry":{"type":"Point","coordinates":[-3.186537,55.944925]},"properties":{"rgb-string":"#ff8000","marker-color":"#ff8000","marker-symbol":"danger","location":"laws.merit.bleak"}},{"type":"Feature","geometry":{"type":"Point","coordinates":[-3.186922,55.945437]},"properties":{"rgb-string":"#ff4000","marker-color":"#ff4000","marker-symbol":"danger","location":"spent.spoon.bolt"}},{"type":"Feature","geometry":{"type":"Point","coordinates":[-3.187259,55.945653]},"properties":{"rgb-string":"#ff4000","marker-color":"#ff4000","marker-symbol":"danger","location":"diner.leaves.mutual"}},{"type":"Feature","geometry":{"type":"Point","coordinates":[-3.187307,55.944494]},"properties":{"rgb-string":"#ff8000","marker-color":"#ff8000","marker-symbol":"danger","location":"only.fairly.rift"}},{"type":"Feature","geometry":{"type":"Point","coordinates":[-3.187211,55.943335]},"properties":{"rgb-string":"#c0ff00","marker-color":"#c0ff00","marker-symbol":"lighthouse","location":"scale.chair.kinds"}},{"type":"Feature","geometry":{"type":"Point","coordinates":[-3.18697,55.942688]},"properties":{"rgb-string":"#ffc000","marker-color":"#ffc000","marker-symbol":"danger","location":"strut.river.surely"}},{"type":"Feature","geometry":{"type":"Point","coordinates":[-3.186248,55.942796]},"properties":{"rgb-string":"#ff0000","marker-color":"#ff0000","marker-symbol":"danger","location":"under.retire.bump"}},{"type":"Feature","geometry":{"type":"Point","coordinates":[-3.184658,55.943874]},"properties":{"rgb-string":"#ff0000","marker-color":"#ff0000","marker-symbol":"danger","location":"rider.mile.lime"}},{"type":"Feature","geometry":{"type":"Point","coordinates":[-3.184513,55.945302]},"properties":{"rgb-string":"#ff0000","marker-color":"#ff0000","marker-symbol":"danger","location":"settle.title.united"}}]}