{"type":"FeatureCollection","features":[{"type":"Feature","geometry":{"type":"LineString","coordinates":[[-3.188396,55.944425],[-3.1882934,55.9441431],[-3.1881434,55.9438833],[-3.1880408,55.9436014],[-3.1882706,55.9434085],[-3.1885004,55.9432157],[-3.1887823,55.9431131],[-3.1890778,55.943061],[-3.1892706,55.9432908],[-3.1894634,55.9435206],[-3.1896134,55.9437804],[-3.1897634,55.9440402],[-3.1900634,55.9440402],[-3.1903589,55.9439882],[-3.1902563,55.9437062],[-3.1902042,55.9434108],[-3.1905042,55.9434108],[-3.1908042,55.9434108],[-3.1910996,55.9433587],[-3.1910996,55.9436587],[-3.1910996,55.9439587],[-3.1910996,55.9442587],[-3.1910996,55.9445587],[-3.1910475,55.9448541],[-3.1910475,55.9451541],[-3.1911975,55.945414],[-3.1914573,55.945264],[-3.1917528,55.9452119],[-3.1920482,55.9451598],[-3.1919961,55.9454552],[-3.191944,55.9457507],[-3.1918919,55.9460461],[-3.19161,55.9459435],[-3.1913502,55.9457935],[-3.1910683,55.9456909],[-3.1908085,55.9455409],[-3.1905266,55.9454383],[-3.1903338,55.9456681],[-3.1901039,55.9458609],[-3.1899111,55.9460907],[-3.1896292,55.9459881],[-3.1893473,55.9458855],[-3.1890654,55.9457829],[-3.1888056,55.9459329],[-3.1885458,55.9460829],[-3.1882503,55.9460308],[-3.1879549,55.9459787],[-3.1876549,55.9459787],[-3.1873594,55.9459266],[-3.187064,55.9458745],[-3.1867686,55.9458224],[-3.1864731,55.9457704],[-3.1864731,55.9454704],[-3.1865252,55.9451749],[-3.1865252,55.9448749],[-3.1863752,55.9446151],[-3.1861824,55.9443853],[-3.1858824,55.9443853],[-3.1855869,55.9443332],[-3.1857798,55.9441034],[-3.1860096,55.9439105],[-3.1857141,55.9438585],[-3.1854322,55.9437558],[-3.1851368,55.9437038],[-3.1849868,55.9434439],[-3.1848368,55.9431841],[-3.1851322,55.943132],[-3.1854277,55.9430799],[-3.1856205,55.9428501],[-3.185916,55.9429022],[-3.1862114,55.9429543],[-3.1864933,55.9428517],[-3.1867752,55.9427491],[-3.1870571,55.9426465],[-3.187005,55.9429419],[-3.186855,55.9432018],[-3.186705,55.9434616],[-3.186555,55.9437214],[-3.1864524,55.9440033],[-3.1863024,55.9442631],[-3.1861998,55.944545],[-3.1860498,55.9448048],[-3.1859472,55.9450867],[-3.1857972,55.9453465],[-3.1856946,55.9456284],[-3.1854127,55.9455258],[-3.1851173,55.9454737],[-3.1848353,55.9453711],[-3.1845399,55.945319],[-3.1848353,55.9452669],[-3.1851308,55.9452148],[-3.1854262,55.9451627],[-3.1857217,55.9451106],[-3.1860171,55.9450586],[-3.1863126,55.9450065],[-3.186608,55.9449544],[-3.1868899,55.9448518],[-3.1867399,55.9451116],[-3.1869327,55.9453414],[-3.1871256,55.9455712],[-3.187421,55.9455191],[-3.187721,55.9455191],[-3.1880165,55.945467],[-3.1881191,55.9451851],[-3.1882217,55.9449032],[-3.1883243,55.9446213]]},"properties":{}},{"type":"Feature","geometry":{"type":"Point","coordinates":[-3.187982,55.943497]},"properties":{"rgb-string":"#00ff00","marker-color":"#00ff00","marker-symbol":"lighthouse","location":"scare.cubs.resort"}},{"type":"Feature","geometry":{"type":"Point","coordinates":[-3.188608,55.943119]},"properties":{"rgb-string":"#40ff00","marker-color":"#40ff00","marker-symbol":"lighthouse","location":"groups.ideas.script"}},{"type":"Feature","geometry":{"type":"Point","coordinates":[-3.189234,55.943012]},"properties":{"rgb-string":"#000000","marker-color":"#000000","marker-symbol":"cross","location":"region.passes.pencil"}},{"type":"Feature","geometry":{"type":"Point","coordinates":[-3.189523,55.943551]},"properties":{"rgb-string":"#40ff00","marker-color":"#40ff00","marker-symbol":"lighthouse","location":"cars.attend.hotels"}},{"type":"Feature","geometry":{"type":"Point","coordinates":[-3.189812,55.94409]},"properties":{"rgb-string":"#40ff00","marker-color":"#40ff00","marker-symbol":"lighthouse","location":"cliff.asleep.wedge"}},{"type":"Feature","geometry":{"type":"Point","coordinates":[-3.190438,55.943982]},"properties":{"rgb-string":"#00ff00","marker-color":"#00ff00","marker-symbol":"lighthouse","location":"pump.wheels.hulk"}},{"type":"Feature","geometry":{"type":"Point","coordinates":[-3.190197,55.943443]},"properties":{"rgb-string":"#00ff00","marker-color":"#00ff00","marker-symbol":"lighthouse","location":"arts.dish.scarcely"}},{"type":"Feature","geometry":{"type":"Point","coordinates":[-3.191161,55.943362]},"properties":{"rgb-string":"#00ff00","marker-color":"#00ff00","marker-symbol":"lighthouse","location":"meal.feed.large"}},{"type":"Feature","geometry":{"type":"Point","coordinates":[-3.191065,55.94444]},"properties":{"rgb-string":"#40ff00","marker-color":"#40ff00","marker-symbol":"lighthouse","location":"paying.crowd.weep"}},{"type":"Feature","geometry":{"type":"Point","coordinates":[-3.191016,55.945248]},"properties":{"rgb-string":"#ff0000","marker-color":"#ff0000","marker-symbol":"danger","location":"maple.limit.hotels"}},{"type":"Feature","geometry":{"type":"Point","coordinates":[-3.191257,55.945599]},"properties":{"rgb-string":"#ff0000","marker-color":"#ff0000","marker-symbol":"danger","location":"skins.engage.best"}},{"type":"Feature","geometry":{"type":"Point","coordinates":[-3.191594,55.945195]},"properties":{"rgb-string":"#ff8000","marker-color":"#ff8000","marker-symbol":"danger","location":"hills.feels.tunes"}},{"type":"Feature","geometry":{"type":"Point","coordinates":[-3.192221,55.945114]},"properties":{"rgb-string":"#c0ff00","marker-color":"#c0ff00","marker-symbol":"lighthouse","location":"useful.hike.trades"}},{"type":"Feature","geometry":{"type":"Point","coordinates":[-3.191883,55.946003]},"properties":{"rgb-string":"#000000","marker-color":"#000000","marker-symbol":"cross","location":"stone.undulation.poems"}},{"type":"Feature","geometry":{"type":"Point","coordinates":[-3.190438,55.945383]},"properties":{"rgb-string":"#000000","marker-color":"#000000","marker-symbol":"cross","location":"jump.crop.fits"}},{"type":"Feature","geometry":{"type":"Point","coordinates":[-3.189957,55.94603]},"properties":{"rgb-string":"#ff0000","marker-color":"#ff0000","marker-symbol":"danger","location":"love.behind.orchestra"}},{"type":"Feature","geometry":{"type":"Point","coordinates":[-3.188897,55.945707]},"properties":{"rgb-string":"#ff4000","marker-color":"#ff4000","marker-symbol":"danger","location":"stops.else.chats"}},{"type":"Feature","geometry":{"type":"Point","coordinates":[-3.18856,55.946057]},"properties":{"rgb-string":"#ff8000","marker-color":"#ff8000","marker-symbol":"danger","location":"boost.radar.stress"}},{"type":"Feature","geometry":{"type":"Point","coordinates":[-3.187404,55.945949]},"properties":{"rgb-string":"#ff0000","marker-color":"#ff0000","marker-symbol":"danger","location":"slips.mass.baking"}},{"type":"Feature","geometry":{"type":"Point","coordinates":[-3.186296,55.945761]},"properties":{"rgb-string":"#c0ff00","marker-color":"#c0ff00","marker-symbol":"lighthouse","location":"posts.kicked.universally"}},{"type":"Feature","geometry":{"type":"Point","coordinates":[-3.186537,55.944925]},"properties":{"rgb-string":"#ff8000","marker-color":"#ff8000","marker-symbol":"danger","location":"laws.merit.bleak"}},{"type":"Feature","geometry":{"type":"Point","coordinates":[-3.186103,55.944251]},"properties":{"rgb-string":"#c0ff00","marker-color":"#c0ff00","marker-symbol":"lighthouse","location":"organs.shape.fantastic"}},{"type":"Feature","geometry":{"type":"Point","coordinates":[-3.18567,55.944359]},"properties":{"rgb-string":"#ff4000","marker-color":"#ff4000","marker-symbol":"danger","location":"atoms.vanish.foods"}},{"type":"Feature","geometry":{"type":"Point","coordinates":[-3.186007,55.943901]},"properties":{"rgb-string":"#ff8000","marker-color":"#ff8000","marker-symbol":"danger","location":"teams.mild.played"}},{"type":"Feature","geometry":{"type":"Point","coordinates":[-3.18514,55.943685]},"properties":{"rgb-string":"#000000","marker-color":"#000000","marker-symbol":"cross","location":"hello.love.keys"}},{"type":"Feature","geometry":{"type":"Point","coordinates":[-3.184754,55.943012]},"properties":{"rgb-string":"#ff4000","marker-color":"#ff4000","marker-symbol":"danger","location":"courier.assume.bill"}},{"type":"Feature","geometry":{"type":"Point","coordinates":[-3.185621,55.943065]},"properties":{"rgb-string":"#ffc000","marker-color":"#ffc000","marker-symbol":"danger","location":"toned.deflection.bland"}},{"type":"Feature","geometry":{"type":"Point","coordinates":[-3.185573,55.942877]},"properties":{"rgb-string":"#ff0000","marker-color":"#ff0000","marker-symbol":"danger","location":"dent.shins.cycle"}},{"type":"Feature","geometry":{"type":"Point","coordinates":[-3.186344,55.942958]},"properties":{"rgb-string":"#ff0000","marker-color":"#ff0000","marker-symbol":"danger","location":"hers.banks.goat"}},{"type":"Feature","geometry":{"type":"Point","coordinates":[-3.18697,55.942688]},"properties":{"rgb-string":"#c0ff00","marker-color":"#c0ff00","marker-symbol":"lighthouse","location":"strut.river.surely"}},{"type":"Feature","geometry":{"type":"Point","coordinates":[-3.187018,55.942877]},"properties":{"rgb-string":"#000000","marker-color":"#000000","marker-symbol":"cross","location":"valve.elaborate.fortunate"}},{"type":"Feature","geometry":{"type":"Point","coordinates":[-3.185621,55.945761]},"properties":{"rgb-string":"#ff4000","marker-color":"#ff4000","marker-symbol":"danger","location":"shed.desire.muddy"}},{"type":"Feature","geometry":{"type":"Point","coordinates":[-3.184513,55.945302]},"properties":{"rgb-string":"#ff8000","marker-color":"#ff8000","marker-symbol":"danger","location":"settle.title.united"}}]}