{"type":"FeatureCollection","features":[{"type":"Feature","geometry":{"type":"LineString","coordinates":[[-3.188396,55.944425],[-3.1882934,55.9441431],[-3.1881434,55.9438833],[-3.1879506,55.9441131],[-3.1878006,55.9443729],[-3.1875051,55.944425],[-3.1872232,55.9445276],[-3.1871206,55.9442457],[-3.187018,55.9439638],[-3.1872108,55.943734],[-3.1871587,55.9434385],[-3.1871066,55.9431431],[-3.187004,55.9428612],[-3.1868112,55.943091],[-3.1869612,55.9428312],[-3.1867684,55.943061],[-3.1864684,55.943061],[-3.1863184,55.9433208],[-3.1861684,55.9435806],[-3.1860184,55.9438404],[-3.1860705,55.9441359],[-3.1857886,55.9440333],[-3.1854931,55.9439812],[-3.1853905,55.9442631],[-3.1852405,55.9445229],[-3.1849807,55.9446729],[-3.1847879,55.9449027],[-3.1846379,55.9451625],[-3.1848977,55.9453125],[-3.1851575,55.9454625],[-3.1854173,55.9456125],[-3.1856471,55.9458053],[-3.1858399,55.9460352],[-3.1860997,55.9458852],[-3.1863595,55.9457352],[-3.1865095,55.9454753],[-3.1867024,55.9452455],[-3.1869622,55.9453955],[-3.187222,55.9455455],[-3.187522,55.9455455],[-3.187822,55.9455455],[-3.188122,55.9455455],[-3.1884174,55.9455976],[-3.1887129,55.9456497],[-3.1888155,55.9453678],[-3.1889181,55.9450859],[-3.1889702,55.9447905],[-3.1890728,55.9445086],[-3.1891249,55.9442131],[-3.1894203,55.944161],[-3.1897158,55.9441089],[-3.1899756,55.9439589],[-3.1902054,55.9437661],[-3.1903982,55.9435363],[-3.1905911,55.9433065],[-3.1907411,55.9430467],[-3.1910411,55.9430467],[-3.1911437,55.9427647],[-3.1911437,55.9430647],[-3.1911437,55.9433647],[-3.1911437,55.9436647],[-3.1910916,55.9439602],[-3.1910916,55.9442602],[-3.1910916,55.9445602],[-3.1910916,55.9448602],[-3.1910916,55.9451602],[-3.1910916,55.9454602],[-3.1911437,55.9457556],[-3.1911437,55.9460556],[-3.1909508,55.9458258],[-3.190758,55.945596],[-3.1905652,55.9453662],[-3.1903723,55.9451364],[-3.1901795,55.9449066],[-3.1899867,55.9446768],[-3.1897938,55.9444469],[-3.189564,55.9442541],[-3.1893712,55.9440243],[-3.1891414,55.9438315],[-3.1889485,55.9436016],[-3.1887187,55.9434088],[-3.1886161,55.9431269],[-3.188898,55.9430243],[-3.1891799,55.9429217],[-3.1894754,55.9428696],[-3.1897052,55.9426768],[-3.1900052,55.9426768],[-3.1897097,55.9427288],[-3.1899916,55.9426262],[-3.1896962,55.9426783],[-3.1899962,55.9426783],[-3.1897008,55.9427304],[-3.1899827,55.9426278],[-3.1896872,55.9426799],[-3.1899872,55.9426799],[-3.1896918,55.942732],[-3.1899737,55.9426294],[-3.1896782,55.9426815],[-3.1899782,55.9426815],[-3.1896828,55.9427336],[-3.1899647,55.942631],[-3.1896693,55.9426831],[-3.1899693,55.9426831],[-3.1896738,55.9427352],[-3.1899557,55.9426326],[-3.1896603,55.9426847],[-3.1899603,55.9426847],[-3.1899603,55.9429847],[-3.1896648,55.9430368],[-3.1893648,55.9430368],[-3.1890694,55.9430889],[-3.1887694,55.9430889],[-3.188474,55.9431409],[-3.188174,55.9431409],[-3.1878785,55.943193],[-3.1875785,55.943193],[-3.1872831,55.9432451],[-3.1869831,55.9432451],[-3.1866876,55.9432972],[-3.1863876,55.9432972],[-3.1860922,55.9433493],[-3.1857922,55.9433493],[-3.1854967,55.9434014],[-3.1851967,55.9434014],[-3.1849013,55.9434535],[-3.1851832,55.9435561],[-3.1854651,55.9436587],[-3.1857606,55.9437108],[-3.1860425,55.9438134],[-3.1863379,55.9438655],[-3.1866198,55.9439681],[-3.1869153,55.9440202],[-3.1871972,55.9441228],[-3.1874926,55.9441749],[-3.1877745,55.9442775],[-3.18807,55.9443296],[-3.1883519,55.9444322]]},"properties":{}},{"type":"Feature","geometry":{"type":"Point","coordinates":[-3.188271,55.944063]},"properties":{"rgb-string":"#00ff00","marker-color":"#00ff00","marker-symbol":"lighthouse","location":"rush.crown.link"}},{"type":"Feature","geometry":{"type":"Point","coordinates":[-3.188126,55.943793]},"properties":{"rgb-string":"#40ff00","marker-color":"#40ff00","marker-symbol":"lighthouse","location":"cubs.trucks.help"}},{"type":"Feature","geometry":{"type":"Point","coordinates":[-3.187789,55.944386]},"properties":{"rgb-string":"#40ff00","marker-color":"#40ff00","marker-symbol":"lighthouse","location":"thank.salsa.brain"}},{"type":"Feature","geometry":{"type":"Point","coordinates":[-3.187307,55.944494]},"properties":{"rgb-string":"#ffc000","marker-color":"#ffc000","marker-symbol":"danger","location":"only.fairly.rift"}},{"type":"Feature","geometry":{"type":"Point","coordinates":[-3.187018,55.943982]},"properties":{"rgb-string":"#80ff00","marker-color":"#80ff00","marker-symbol":"lighthouse","location":"renew.ears.tend"}},{"type":"Feature","geometry":{"type":"Point","coordinates":[-3.187355,55.943604]},"properties":{"rgb-string":"#80ff00","marker-color":"#80ff00","marker-symbol":"lighthouse","location":"shut.stands.media"}},{"type":"Feature","geometry":{"type":"Point","coordinates":[-3.18697,55.942688]},"properties":{"rgb-string":"#ff4000","marker-color":"#ff4000","marker-symbol":"danger","location":"strut.river.surely"}},{"type":"Feature","geometry":{"type":"Point","coordinates":[-3.186007,55.943901]},"properties":{"rgb-string":"#ffc000","marker-color":"#ffc000","marker-symbol":"danger","location":"teams.mild.played"}},{"type":"Feature","geometry":{"type":"Point","coordinates":[-3.186103,55.944251]},"properties":{"rgb-string":"#ff4000","marker-color":"#ff4000","marker-symbol":"danger","location":"organs.shape.fantastic"}},{"type":"Feature","geometry":{"type":"Point","coordinates":[-3.185525,55.943982]},"properties":{"rgb-string":"#ffc000","marker-color":"#ffc000","marker-symbol":"danger","location":"manliness.poem.cliff"}},{"type":"Feature","geometry":{"type":"Point","coordinates":[-3.185236,55.944575]},"properties":{"rgb-string":"#ff8000","marker-color":"#ff8000","marker-symbol":"danger","location":"acid.chair.butter"}},{"type":"Feature","geometry":{"type":"Point","coordinates":[-3.184899,55.944736]},"properties":{"rgb-string":"#000000","marker-color":"#000000","marker-symbol":"cross","location":"slide.leads.stores"}},{"type":"Feature","geometry":{"type":"Point","coordinates":[-3.184513,55.945302]},"properties":{"rgb-string":"#ff4000","marker-color":"#ff4000","marker-symbol":"danger","location":"settle.title.united"}},{"type":"Feature","geometry":{"type":"Point","coordinates":[-3.185621,55.945761]},"properties":{"rgb-string":"#ff4000","marker-color":"#ff4000","marker-symbol":"danger","location":"shed.desire.muddy"}},{"type":"Feature","geometry":{"type":"Point","coordinates":[-3.185814,55.94603]},"properties":{"rgb-string":"#ff0000","marker-color":"#ff0000","marker-symbol":"danger","location":"renew.slows.basket"}},{"type":"Feature","geometry":{"type":"Point","coordinates":[-3.186296,55.945761]},"properties":{"rgb-string":"#ff4000","marker-color":"#ff4000","marker-symbol":"danger","location":"posts.kicked.universally"}},{"type":"Feature","geometry":{"type":"Point","coordinates":[-3.186729,55.945168]},"properties":{"rgb-string":"#ffc000","marker-color":"#ffc000","marker-symbol":"danger","location":"dragon.bottle.crisp"}},{"type":"Feature","geometry":{"type":"Point","coordinates":[-3.188319,55.945518]},"properties":{"rgb-string":"#000000","marker-color":"#000000","marker-symbol":"cross","location":"skills.less.herb"}},{"type":"Feature","geometry":{"type":"Point","coordinates":[-3.188897,55.945707]},"properties":{"rgb-string":"#ff0000","marker-color":"#ff0000","marker-symbol":"danger","location":"stops.else.chats"}},{"type":"Feature","geometry":{"type":"Point","coordinates":[-3.189138,55.944197]},"properties":{"rgb-string":"#40ff00","marker-color":"#40ff00","marker-symbol":"lighthouse","location":"spoon.invest.every"}},{"type":"Feature","geometry":{"type":"Point","coordinates":[-3.189812,55.94409]},"properties":{"rgb-string":"#40ff00","marker-color":"#40ff00","marker-symbol":"lighthouse","location":"cliff.asleep.wedge"}},{"type":"Feature","geometry":{"type":"Point","coordinates":[-3.190294,55.943712]},"properties":{"rgb-string":"#40ff00","marker-color":"#40ff00","marker-symbol":"lighthouse","location":"sculpture.shot.melon"}},{"type":"Feature","geometry":{"type":"Point","coordinates":[-3.190727,55.943092]},"properties":{"rgb-string":"#00ff00","marker-color":"#00ff00","marker-symbol":"lighthouse","location":"relate.chill.vest"}},{"type":"Feature","geometry":{"type":"Point","coordinates":[-3.191161,55.943065]},"properties":{"rgb-string":"#00ff00","marker-color":"#00ff00","marker-symbol":"lighthouse","location":"else.urban.museum"}},{"type":"Feature","geometry":{"type":"Point","coordinates":[-3.191161,55.942742]},"properties":{"rgb-string":"#00ff00","marker-color":"#00ff00","marker-symbol":"lighthouse","location":"along.spill.limp"}},{"type":"Feature","geometry":{"type":"Point","coordinates":[-3.191161,55.943362]},"properties":{"rgb-string":"#40ff00","marker-color":"#40ff00","marker-symbol":"lighthouse","location":"meal.feed.large"}},{"type":"Feature","geometry":{"type":"Point","coordinates":[-3.191113,55.943901]},"properties":{"rgb-string":"#00ff00","marker-color":"#00ff00","marker-symbol":"lighthouse","location":"spicy.bunch.shady"}},{"type":"Feature","geometry":{"type":"Point","coordinates":[-3.191065,55.94444]},"properties":{"rgb-string":"#40ff00","marker-color":"#40ff00","marker-symbol":"lighthouse","location":"paying.crowd.weep"}},{"type":"Feature","geometry":{"type":"Point","coordinates":[-3.191161,55.945976]},"properties":{"rgb-string":"#000000","marker-color":"#000000","marker-symbol":"cross","location":"simple.rust.audio"}},{"type":"Feature","geometry":{"type":"Point","coordinates":[-3.188704,55.943389]},"properties":{"rgb-string":"#00ff00","marker-color":"#00ff00","marker-symbol":"lighthouse","location":"system.speak.guard"}},{"type":"Feature","geometry":{"type":"Point","coordinates":[-3.188608,55.943119]},"properties":{"rgb-string":"#40ff00","marker-color":"#40ff00","marker-symbol":"lighthouse","location":"groups.ideas.script"}},{"type":"Feature","geometry":{"type":"Point","coordinates":[-3.189764,55.942661]},"properties":{"rgb-string":"#40ff00","marker-color":"#40ff00","marker-symbol":"lighthouse","location":"hooked.shine.third"}},{"type":"Feature","geometry":{"type":"Point","coordinates":[-3.184947,55.943443]},"properties":{"rgb-string":"#ffc000","marker-color":"#ffc000","marker-symbol":"danger","location":"sentences.sings.modern"}}]}